"","time_usec","domain"
"1",2021-01-10 14:24:50,"google.com"
"2",2021-01-10 14:24:47,"google.com"
"3",2021-01-10 14:24:37,"google.com"
"4",2021-01-10 14:24:34,"google.com"
"5",2021-01-10 14:24:26,"github.com"
"6",2021-01-10 14:24:24,"github.com"
"7",2021-01-10 14:21:36,"google.com"
"8",2021-01-10 14:18:37,"google.com"
"9",2021-01-10 14:18:18,"google.com"
"10",2021-01-10 14:17:34,"google.com"
"11",2021-01-10 14:17:31,"google.com"
"12",2021-01-10 14:16:30,"google.com"
"13",2021-01-10 14:15:30,"google.com"
"14",2021-01-10 14:13:12,"github.com"
"15",2021-01-10 14:13:11,"github.com"
"16",2021-01-10 14:13:09,"github.com"
"17",2021-01-10 14:13:07,"github.com"
"18",2021-01-10 14:12:29,"github.com"
"19",2021-01-10 14:12:29,"github.com"
"20",2021-01-10 14:12:22,"github.com"
"21",2021-01-10 14:12:16,"github.com"
"22",2021-01-10 14:10:27,"facebook.com"
"23",2021-01-10 14:10:01,"google.com"
"24",2021-01-10 14:09:49,"pw.edu.pl"
"25",2021-01-10 14:09:44,"github.com"
"26",2021-01-10 14:07:41,"github.com"
"27",2021-01-10 14:07:30,"github.com"
"28",2021-01-10 14:06:45,"github.com"
"29",2021-01-10 14:06:38,"github.com"
"30",2021-01-10 00:21:11,"stackoverflow.com"
"31",2021-01-10 00:21:09,"stackoverflow.com"
"32",2021-01-10 00:18:44,"stackoverflow.com"
"33",2021-01-10 00:18:35,"google.com"
"34",2021-01-10 00:10:55,"facebook.com"
"35",2021-01-10 00:10:30,"facebook.com"
"36",2021-01-10 00:10:28,"facebook.com"
"37",2021-01-10 00:08:02,"facebook.com"
"38",2021-01-10 00:01:30,"facebook.com"
"39",2021-01-10 00:01:28,"facebook.com"
"40",2021-01-10 00:01:28,"facebook.com"
"41",2021-01-09 23:36:32,"facebook.com"
"42",2021-01-09 23:36:30,"facebook.com"
"43",2021-01-09 23:36:26,"github.com"
"44",2021-01-09 23:28:54,"google.com"
"45",2021-01-09 23:28:14,"github.com"
"46",2021-01-09 23:28:11,"github.com"
"47",2021-01-09 23:28:05,"github.com"
"48",2021-01-09 23:27:59,"github.com"
"49",2021-01-09 23:27:00,"facebook.com"
"50",2021-01-09 23:27:00,"facebook.com"
"51",2021-01-09 22:07:17,"facebook.com"
"52",2021-01-09 22:06:12,"facebook.com"
"53",2021-01-09 22:06:10,"facebook.com"
"54",2021-01-09 22:03:29,"google.com"
"55",2021-01-09 22:01:53,"google.com"
"56",2021-01-09 21:59:17,"google.com"
"57",2021-01-09 21:52:49,"google.com"
"58",2021-01-09 21:51:59,"google.com"
"59",2021-01-09 21:00:37,"facebook.com"
"60",2021-01-09 21:00:36,"facebook.com"
"61",2021-01-09 20:55:28,"google.com"
"62",2021-01-09 20:55:14,"wikipedia.org"
"63",2021-01-09 20:55:06,"wikipedia.org"
"64",2021-01-09 20:55:01,"google.com"
"65",2021-01-09 20:52:17,"facebook.com"
"66",2021-01-09 20:52:16,"facebook.com"
"67",2021-01-09 20:52:15,"facebook.com"
"68",2021-01-09 20:51:03,"google.com"
"69",2021-01-09 20:36:11,"pw.edu.pl"
"70",2021-01-09 20:35:58,"pw.edu.pl"
"71",2021-01-09 20:34:39,"facebook.com"
"72",2021-01-09 20:34:39,"facebook.com"
"73",2021-01-09 20:34:33,"github.com"
"74",2021-01-09 20:34:25,"github.com"
"75",2021-01-09 20:34:20,"github.com"
"76",2021-01-09 19:20:31,"wikipedia.org"
"77",2021-01-09 19:20:30,"google.com"
"78",2021-01-09 19:19:13,"github.com"
"79",2021-01-09 19:19:11,"github.com"
"80",2021-01-09 19:19:07,"github.com"
"81",2021-01-09 19:18:37,"github.com"
"82",2021-01-09 19:16:27,"github.com"
"83",2021-01-09 19:15:43,"github.com"
"84",2021-01-09 19:15:38,"github.com"
"85",2021-01-09 18:53:20,"github.com"
"86",2021-01-09 18:53:19,"github.com"
"87",2021-01-09 18:53:18,"github.com"
"88",2021-01-09 18:53:16,"github.com"
"89",2021-01-09 18:53:08,"github.com"
"90",2021-01-09 18:51:44,"github.com"
"91",2021-01-09 18:51:44,"github.com"
"92",2021-01-09 18:51:34,"github.com"
"93",2021-01-09 18:51:30,"github.com"
"94",2021-01-09 18:50:38,"github.com"
"95",2021-01-09 18:49:34,"github.com"
"96",2021-01-09 18:49:23,"github.com"
"97",2021-01-09 18:48:12,"github.com"
"98",2021-01-09 18:48:08,"github.com"
"99",2021-01-09 18:47:53,"github.com"
"100",2021-01-09 18:47:53,"github.com"
"101",2021-01-09 18:47:33,"github.com"
"102",2021-01-09 18:46:53,"github.com"
"103",2021-01-09 18:46:50,"github.com"
"104",2021-01-09 18:45:55,"github.com"
"105",2021-01-09 18:45:51,"github.com"
"106",2021-01-09 18:45:27,"github.com"
"107",2021-01-09 18:45:25,"github.com"
"108",2021-01-09 18:45:25,"github.com"
"109",2021-01-09 18:45:17,"github.com"
"110",2021-01-09 18:45:13,"github.com"
"111",2021-01-09 18:45:11,"facebook.com"
"112",2021-01-09 18:44:57,"facebook.com"
"113",2021-01-09 18:44:55,"facebook.com"
"114",2021-01-09 17:36:00,"github.com"
"115",2021-01-09 17:35:59,"github.com"
"116",2021-01-09 17:35:58,"github.com"
"117",2021-01-09 17:35:54,"facebook.com"
"118",2021-01-09 17:20:02,"github.com"
"119",2021-01-09 17:19:54,"github.com"
"120",2021-01-09 17:19:50,"github.com"
"121",2021-01-09 17:19:45,"github.com"
"122",2021-01-09 17:19:26,"facebook.com"
"123",2021-01-09 17:19:21,"facebook.com"
"124",2021-01-09 17:19:21,"facebook.com"
"125",2021-01-09 15:29:32,"github.com"
"126",2021-01-09 15:17:27,"google.com"
"127",2021-01-09 14:57:35,"pw.edu.pl"
"128",2021-01-09 14:52:23,"github.com"
"129",2021-01-09 14:52:19,"github.com"
"130",2021-01-09 14:52:13,"github.com"
"131",2021-01-09 14:52:05,"github.com"
"132",2021-01-09 14:51:58,"github.com"
"133",2021-01-09 14:51:54,"pw.edu.pl"
"134",2021-01-09 14:51:49,"pw.edu.pl"
"135",2021-01-09 14:51:42,"pw.edu.pl"
"136",2021-01-09 14:51:38,"pw.edu.pl"
"137",2021-01-09 14:51:20,"pw.edu.pl"
"138",2021-01-09 14:51:06,"pw.edu.pl"
"139",2021-01-09 14:50:58,"pw.edu.pl"
"140",2021-01-09 01:55:30,"pw.edu.pl"
"141",2021-01-09 01:55:21,"pw.edu.pl"
"142",2021-01-09 01:53:50,"pw.edu.pl"
"143",2021-01-09 01:53:44,"pw.edu.pl"
"144",2021-01-09 01:53:32,"pw.edu.pl"
"145",2021-01-09 01:53:30,"pw.edu.pl"
"146",2021-01-09 01:19:15,"github.com"
"147",2021-01-09 01:19:08,"github.com"
"148",2021-01-09 00:47:07,"google.com"
"149",2021-01-09 00:47:00,"google.com"
"150",2021-01-09 00:46:13,"google.com"
"151",2021-01-09 00:34:15,"google.com"
"152",2021-01-09 00:28:19,"stackoverflow.com"
"153",2021-01-09 00:28:16,"google.com"
"154",2021-01-09 00:25:44,"stackoverflow.com"
"155",2021-01-09 00:25:39,"google.com"
"156",2021-01-09 00:25:32,"google.com"
"157",2021-01-09 00:24:44,"google.com"
"158",2021-01-09 00:00:58,"google.com"
"159",2021-01-08 23:54:16,"google.com"
"160",2021-01-08 23:42:03,"google.com"
"161",2021-01-08 23:01:37,"stackoverflow.com"
"162",2021-01-08 23:01:35,"google.com"
"163",2021-01-08 23:01:14,"github.com"
"164",2021-01-08 23:00:38,"github.com"
"165",2021-01-08 23:00:35,"github.com"
"166",2021-01-08 23:00:11,"github.com"
"167",2021-01-08 23:00:09,"github.com"
"168",2021-01-08 23:00:09,"github.com"
"169",2021-01-08 22:59:58,"github.com"
"170",2021-01-08 22:59:19,"google.com"
"171",2021-01-08 22:59:08,"google.com"
"172",2021-01-08 22:45:00,"google.com"
"173",2021-01-08 22:32:51,"stackoverflow.com"
"174",2021-01-08 22:32:50,"google.com"
"175",2021-01-08 22:29:14,"google.com"
"176",2021-01-08 21:38:02,"google.com"
"177",2021-01-08 21:35:18,"google.com"
"178",2021-01-08 21:20:42,"google.com"
"179",2021-01-08 21:18:41,"stackoverflow.com"
"180",2021-01-08 21:09:58,"google.com"
"181",2021-01-08 21:09:50,"google.com"
"182",2021-01-08 21:08:43,"google.com"
"183",2021-01-08 21:01:47,"google.com"
"184",2021-01-08 20:44:37,"google.com"
"185",2021-01-08 20:43:57,"google.com"
"186",2021-01-08 20:42:07,"google.com"
"187",2021-01-08 20:39:21,"google.com"
"188",2021-01-08 20:33:31,"github.com"
"189",2021-01-08 20:33:24,"github.com"
"190",2021-01-08 20:33:22,"github.com"
"191",2021-01-08 20:33:04,"github.com"
"192",2021-01-08 20:33:03,"github.com"
"193",2021-01-08 20:33:02,"github.com"
"194",2021-01-08 20:33:02,"github.com"
"195",2021-01-08 20:32:52,"github.com"
"196",2021-01-08 20:32:44,"github.com"
"197",2021-01-08 20:32:40,"github.com"
"198",2021-01-08 20:11:33,"stackoverflow.com"
"199",2021-01-08 20:11:32,"google.com"
"200",2021-01-08 19:58:54,"google.com"
"201",2021-01-08 19:56:10,"facebook.com"
"202",2021-01-08 19:56:04,"github.com"
"203",2021-01-08 19:55:37,"github.com"
"204",2021-01-08 19:55:32,"github.com"
"205",2021-01-08 19:55:27,"pw.edu.pl"
"206",2021-01-08 19:54:19,"pw.edu.pl"
"207",2021-01-08 19:54:13,"pw.edu.pl"
"208",2021-01-08 19:54:06,"pw.edu.pl"
"209",2021-01-08 19:54:04,"pw.edu.pl"
"210",2021-01-08 18:14:25,"github.com"
"211",2021-01-08 18:14:20,"github.com"
"212",2021-01-08 17:58:30,"google.com"
"213",2021-01-08 17:34:24,"pw.edu.pl"
"214",2021-01-08 17:30:11,"facebook.com"
"215",2021-01-08 17:19:50,"pw.edu.pl"
"216",2021-01-08 17:19:44,"pw.edu.pl"
"217",2021-01-08 17:19:36,"pw.edu.pl"
"218",2021-01-08 17:18:22,"pw.edu.pl"
"219",2021-01-08 17:18:14,"pw.edu.pl"
"220",2021-01-08 17:18:09,"pw.edu.pl"
"221",2021-01-08 17:18:03,"pw.edu.pl"
"222",2021-01-08 17:17:56,"pw.edu.pl"
"223",2021-01-08 17:17:55,"pw.edu.pl"
"224",2021-01-08 17:09:24,"google.com"
"225",2021-01-08 16:59:37,"google.com"
"226",2021-01-08 16:56:52,"google.com"
"227",2021-01-08 16:52:36,"google.com"
"228",2021-01-08 16:51:43,"google.com"
"229",2021-01-08 16:44:16,"facebook.com"
"230",2021-01-08 16:44:16,"facebook.com"
"231",2021-01-08 16:44:14,"facebook.com"
"232",2021-01-08 16:37:01,"google.com"
"233",2021-01-08 16:24:40,"github.com"
"234",2021-01-08 16:24:39,"github.com"
"235",2021-01-08 16:24:39,"github.com"
"236",2021-01-08 16:24:35,"github.com"
"237",2021-01-08 16:21:56,"github.com"
"238",2021-01-08 16:21:55,"github.com"
"239",2021-01-08 16:21:12,"github.com"
"240",2021-01-08 16:21:09,"github.com"
"241",2021-01-08 16:21:09,"github.com"
"242",2021-01-08 16:21:05,"github.com"
"243",2021-01-08 16:21:05,"github.com"
"244",2021-01-08 16:20:50,"github.com"
"245",2021-01-08 16:20:47,"github.com"
"246",2021-01-08 16:20:41,"github.com"
"247",2021-01-08 16:20:35,"github.com"
"248",2021-01-08 16:20:14,"github.com"
"249",2021-01-08 16:20:13,"github.com"
"250",2021-01-08 16:19:59,"github.com"
"251",2021-01-08 16:19:52,"github.com"
"252",2021-01-08 16:15:34,"google.com"
"253",2021-01-08 16:15:34,"google.com"
"254",2021-01-08 16:15:06,"google.com"
"255",2021-01-08 16:14:46,"google.com"
"256",2021-01-08 16:14:22,"google.com"
"257",2021-01-08 16:14:16,"google.com"
"258",2021-01-08 16:05:32,"youtube.com"
"259",2021-01-08 16:05:26,"youtube.com"
"260",2021-01-08 16:05:05,"youtube.com"
"261",2021-01-08 16:05:00,"google.com"
"262",2021-01-08 16:03:57,"google.com"
"263",2021-01-08 16:03:17,"facebook.com"
"264",2021-01-08 16:02:49,"pw.edu.pl"
"265",2021-01-08 16:02:48,"pw.edu.pl"
"266",2021-01-08 16:02:34,"pw.edu.pl"
"267",2021-01-08 16:02:26,"pw.edu.pl"
"268",2021-01-08 16:02:24,"pw.edu.pl"
"269",2021-01-08 12:27:22,"pw.edu.pl"
"270",2021-01-08 12:25:29,"pw.edu.pl"
"271",2021-01-08 12:25:27,"pw.edu.pl"
"272",2021-01-08 12:24:30,"pw.edu.pl"
"273",2021-01-08 12:24:08,"pw.edu.pl"
"274",2021-01-08 12:23:51,"pw.edu.pl"
"275",2021-01-08 12:23:36,"pw.edu.pl"
"276",2021-01-08 12:23:28,"pw.edu.pl"
"277",2021-01-08 12:23:20,"pw.edu.pl"
"278",2021-01-08 12:23:19,"pw.edu.pl"
"279",2021-01-08 12:23:11,"pw.edu.pl"
"280",2021-01-08 12:22:56,"pw.edu.pl"
"281",2021-01-08 12:22:53,"pw.edu.pl"
"282",2021-01-08 12:21:20,"pw.edu.pl"
"283",2021-01-08 12:21:14,"pw.edu.pl"
"284",2021-01-08 12:20:32,"pw.edu.pl"
"285",2021-01-08 12:20:24,"pw.edu.pl"
"286",2021-01-08 12:20:12,"pw.edu.pl"
"287",2021-01-08 12:20:00,"pw.edu.pl"
"288",2021-01-08 12:19:55,"pw.edu.pl"
"289",2021-01-08 12:19:53,"pw.edu.pl"
"290",2021-01-08 11:59:09,"github.com"
"291",2021-01-08 11:59:07,"github.com"
"292",2021-01-08 11:59:03,"github.com"
"293",2021-01-08 11:58:59,"github.com"
"294",2021-01-08 11:58:54,"pw.edu.pl"
"295",2021-01-08 11:58:53,"pw.edu.pl"
"296",2021-01-08 11:58:40,"pw.edu.pl"
"297",2021-01-08 11:58:34,"pw.edu.pl"
"298",2021-01-08 11:58:32,"pw.edu.pl"
"299",2021-01-08 11:57:29,"google.com"
"300",2021-01-07 21:23:12,"github.com"
"301",2021-01-07 21:23:11,"github.com"
"302",2021-01-07 21:22:24,"github.com"
"303",2021-01-07 21:22:16,"github.com"
"304",2021-01-07 21:22:15,"github.com"
"305",2021-01-07 21:22:13,"github.com"
"306",2021-01-07 21:22:07,"github.com"
"307",2021-01-07 21:21:09,"github.com"
"308",2021-01-07 21:20:50,"github.com"
"309",2021-01-07 21:19:43,"facebook.com"
"310",2021-01-07 21:19:16,"google.com"
"311",2021-01-07 21:16:04,"facebook.com"
"312",2021-01-07 21:15:32,"facebook.com"
"313",2021-01-07 21:15:32,"facebook.com"
"314",2021-01-07 21:15:29,"facebook.com"
"315",2021-01-07 21:15:26,"github.com"
"316",2021-01-07 21:15:11,"google.com"
"317",2021-01-07 21:14:39,"pw.edu.pl"
"318",2021-01-07 21:14:27,"pw.edu.pl"
"319",2021-01-07 21:14:21,"pw.edu.pl"
"320",2021-01-07 21:14:19,"pw.edu.pl"
"321",2021-01-07 21:13:35,"pw.edu.pl"
"322",2021-01-07 21:13:28,"pw.edu.pl"
"323",2021-01-07 21:13:22,"pw.edu.pl"
"324",2021-01-07 21:13:10,"pw.edu.pl"
"325",2021-01-07 21:13:05,"pw.edu.pl"
"326",2021-01-07 21:13:01,"pw.edu.pl"
"327",2021-01-07 21:12:38,"github.com"
"328",2021-01-07 21:12:34,"github.com"
"329",2021-01-07 21:12:30,"github.com"
"330",2021-01-07 21:06:38,"github.com"
"331",2021-01-07 21:06:27,"github.com"
"332",2021-01-07 16:31:32,"youtube.com"
"333",2021-01-07 16:31:31,"youtube.com"
"334",2021-01-07 16:31:26,"google.com"
"335",2021-01-07 16:30:07,"pw.edu.pl"
"336",2021-01-07 16:29:57,"pw.edu.pl"
"337",2021-01-07 16:29:50,"pw.edu.pl"
"338",2021-01-07 16:29:44,"pw.edu.pl"
"339",2021-01-07 16:29:42,"pw.edu.pl"
"340",2021-01-07 16:29:18,"github.com"
"341",2021-01-07 16:27:06,"github.com"
"342",2021-01-07 16:26:50,"github.com"
"343",2021-01-07 16:26:49,"github.com"
"344",2021-01-07 16:26:45,"github.com"
"345",2021-01-07 16:26:45,"github.com"
"346",2021-01-07 16:26:37,"github.com"
"347",2021-01-06 01:28:30,"google.com"
"348",2021-01-06 00:53:26,"github.com"
"349",2021-01-06 00:53:20,"github.com"
"350",2021-01-06 00:53:17,"pw.edu.pl"
"351",2021-01-06 00:53:09,"pw.edu.pl"
"352",2021-01-06 00:52:53,"pw.edu.pl"
"353",2021-01-06 00:52:48,"pw.edu.pl"
"354",2021-01-06 00:52:46,"pw.edu.pl"
"355",2021-01-05 21:44:52,"facebook.com"
"356",2021-01-05 21:43:17,"facebook.com"
"357",2021-01-05 21:43:13,"facebook.com"
"358",2021-01-05 21:41:27,"facebook.com"
"359",2021-01-05 21:41:22,"facebook.com"
"360",2021-01-05 21:41:09,"facebook.com"
"361",2021-01-05 21:40:49,"facebook.com"
"362",2021-01-05 21:39:52,"facebook.com"
"363",2021-01-05 21:39:52,"facebook.com"
"364",2021-01-05 21:39:37,"facebook.com"
"365",2021-01-05 21:38:09,"github.com"
"366",2021-01-05 21:38:07,"github.com"
"367",2021-01-05 21:37:58,"github.com"
"368",2021-01-05 21:37:55,"github.com"
"369",2021-01-05 21:37:43,"facebook.com"
"370",2021-01-05 21:37:43,"facebook.com"
"371",2021-01-05 21:36:21,"facebook.com"
"372",2021-01-05 21:36:19,"facebook.com"
"373",2021-01-05 21:32:38,"github.com"
"374",2021-01-05 21:32:36,"github.com"
"375",2021-01-05 21:32:36,"github.com"
"376",2021-01-05 21:32:29,"github.com"
"377",2021-01-05 21:32:26,"pw.edu.pl"
"378",2021-01-05 21:32:19,"pw.edu.pl"
"379",2021-01-05 21:31:40,"pw.edu.pl"
"380",2021-01-05 21:31:35,"pw.edu.pl"
"381",2021-01-05 21:31:33,"pw.edu.pl"
"382",2021-01-05 21:31:05,"youtube.com"
"383",2021-01-05 21:30:47,"youtube.com"
"384",2021-01-05 21:30:47,"youtube.com"
"385",2021-01-05 21:30:40,"google.com"
"386",2021-01-05 21:30:16,"google.com"
"387",2021-01-05 21:29:56,"google.com"
"388",2021-01-05 21:29:18,"google.com"
"389",2021-01-05 21:23:18,"google.com"
"390",2021-01-05 21:20:58,"google.com"
"391",2021-01-05 21:20:42,"google.com"
"392",2021-01-05 21:18:14,"google.com"
"393",2021-01-05 21:10:01,"github.com"
"394",2021-01-05 19:48:24,"wikipedia.org"
"395",2021-01-05 19:36:49,"google.com"
"396",2021-01-05 19:36:27,"google.com"
"397",2021-01-05 19:36:10,"google.com"
"398",2021-01-05 19:35:32,"google.com"
"399",2021-01-05 19:35:09,"wikipedia.org"
"400",2021-01-05 19:34:53,"wikipedia.org"
"401",2021-01-05 19:34:44,"google.com"
"402",2021-01-05 19:34:44,"google.com"
"403",2021-01-05 19:34:33,"google.com"
"404",2021-01-05 19:34:01,"wikipedia.org"
"405",2021-01-05 19:31:51,"wikipedia.org"
"406",2021-01-05 19:31:46,"google.com"
"407",2021-01-05 19:12:19,"github.com"
"408",2021-01-05 19:04:32,"github.com"
"409",2021-01-05 19:04:29,"github.com"
"410",2021-01-05 19:04:26,"github.com"
"411",2021-01-05 18:59:11,"google.com"
"412",2021-01-05 18:41:47,"github.com"
"413",2021-01-05 18:30:11,"pw.edu.pl"
"414",2021-01-05 18:30:04,"pw.edu.pl"
"415",2021-01-05 18:29:59,"pw.edu.pl"
"416",2021-01-05 18:29:53,"pw.edu.pl"
"417",2021-01-05 18:29:47,"pw.edu.pl"
"418",2021-01-05 18:29:45,"pw.edu.pl"
"419",2021-01-05 18:21:54,"pw.edu.pl"
"420",2021-01-05 18:16:55,"pw.edu.pl"
"421",2021-01-05 18:12:52,"google.com"
"422",2021-01-05 18:09:51,"github.com"
"423",2021-01-05 17:54:02,"google.com"
"424",2021-01-05 17:50:40,"google.com"
"425",2021-01-05 17:23:49,"pw.edu.pl"
"426",2021-01-05 17:22:48,"github.com"
"427",2021-01-05 17:22:48,"google.com"
"428",2021-01-05 17:22:44,"github.com"
"429",2021-01-05 17:22:29,"wikipedia.org"
"430",2021-01-05 16:19:20,"wikipedia.org"
"431",2021-01-05 16:19:17,"google.com"
"432",2021-01-05 16:18:09,"google.com"
"433",2021-01-05 16:16:52,"google.com"
"434",2021-01-05 16:16:15,"wikipedia.org"
"435",2021-01-05 16:16:12,"wikipedia.org"
"436",2021-01-05 16:16:07,"google.com"
"437",2021-01-05 16:15:51,"google.com"
"438",2021-01-05 15:45:15,"pw.edu.pl"
"439",2021-01-05 15:45:08,"pw.edu.pl"
"440",2021-01-05 15:44:16,"github.com"
"441",2021-01-05 15:44:13,"github.com"
"442",2021-01-05 15:44:12,"github.com"
"443",2021-01-05 15:42:21,"github.com"
"444",2021-01-05 15:41:32,"github.com"
"445",2021-01-05 14:49:32,"github.com"
"446",2021-01-05 14:45:25,"github.com"
"447",2021-01-05 14:41:56,"google.com"
"448",2021-01-05 14:40:11,"github.com"
"449",2021-01-05 14:39:14,"github.com"
"450",2021-01-05 14:28:50,"google.com"
"451",2021-01-05 14:28:46,"google.com"
"452",2021-01-05 14:28:38,"google.com"
"453",2021-01-05 14:28:33,"google.com"
"454",2021-01-05 14:28:30,"google.com"
"455",2021-01-05 14:28:22,"google.com"
"456",2021-01-05 14:27:44,"google.com"
"457",2021-01-05 14:06:08,"google.com"
"458",2021-01-05 14:04:31,"github.com"
"459",2021-01-05 13:58:50,"github.com"
"460",2021-01-05 13:58:50,"github.com"
"461",2021-01-05 13:58:45,"github.com"
"462",2021-01-05 13:58:42,"github.com"
"463",2021-01-05 00:37:24,"pw.edu.pl"
"464",2021-01-05 00:37:16,"pw.edu.pl"
"465",2021-01-05 00:37:10,"pw.edu.pl"
"466",2021-01-05 00:37:00,"pw.edu.pl"
"467",2021-01-05 00:36:54,"pw.edu.pl"
"468",2021-01-05 00:36:52,"pw.edu.pl"
"469",2021-01-04 23:14:54,"github.com"
"470",2021-01-04 23:14:54,"github.com"
"471",2021-01-04 23:14:50,"github.com"
"472",2021-01-04 23:14:47,"pw.edu.pl"
"473",2021-01-04 23:14:44,"pw.edu.pl"
"474",2021-01-04 23:14:33,"pw.edu.pl"
"475",2021-01-04 23:14:26,"pw.edu.pl"
"476",2021-01-04 23:14:21,"pw.edu.pl"
"477",2021-01-04 23:14:19,"pw.edu.pl"
"478",2021-01-04 23:13:18,"github.com"
"479",2021-01-04 23:13:15,"github.com"
"480",2021-01-04 23:13:03,"github.com"
"481",2021-01-04 23:12:58,"github.com"
"482",2021-01-04 23:12:49,"github.com"
"483",2021-01-04 23:12:49,"github.com"
"484",2021-01-04 23:09:57,"google.com"
"485",2021-01-04 23:07:10,"github.com"
"486",2021-01-04 23:07:09,"github.com"
"487",2021-01-04 23:07:07,"github.com"
"488",2021-01-04 23:07:00,"github.com"
"489",2021-01-04 23:06:56,"github.com"
"490",2021-01-04 23:06:04,"google.com"
"491",2021-01-04 22:54:18,"facebook.com"
"492",2021-01-04 22:54:16,"facebook.com"
"493",2021-01-04 22:53:53,"google.com"
"494",2021-01-04 22:53:53,"google.com"
"495",2021-01-04 22:53:42,"github.com"
"496",2021-01-04 22:53:27,"github.com"
"497",2021-01-04 22:53:24,"github.com"
"498",2021-01-04 22:53:23,"github.com"
"499",2021-01-04 22:53:18,"github.com"
"500",2021-01-04 22:52:57,"github.com"
"501",2021-01-04 22:52:44,"github.com"
"502",2021-01-04 22:52:43,"github.com"
"503",2021-01-04 22:52:05,"github.com"
"504",2021-01-04 22:51:39,"github.com"
"505",2021-01-04 22:51:38,"github.com"
"506",2021-01-04 22:51:28,"github.com"
"507",2021-01-04 22:51:14,"github.com"
"508",2021-01-04 22:51:11,"github.com"
"509",2021-01-04 22:50:56,"github.com"
"510",2021-01-04 22:50:47,"github.com"
"511",2021-01-04 22:50:34,"github.com"
"512",2021-01-04 22:50:29,"github.com"
"513",2021-01-04 22:50:29,"github.com"
"514",2021-01-04 22:50:18,"github.com"
"515",2021-01-04 22:50:17,"github.com"
"516",2021-01-04 22:49:58,"github.com"
"517",2021-01-04 22:49:53,"github.com"
"518",2021-01-04 22:49:48,"github.com"
"519",2021-01-04 22:49:47,"github.com"
"520",2021-01-04 22:49:34,"github.com"
"521",2021-01-04 22:44:59,"facebook.com"
"522",2021-01-04 22:43:34,"stackoverflow.com"
"523",2021-01-04 22:43:32,"google.com"
"524",2021-01-04 22:39:01,"google.com"
"525",2021-01-04 22:36:49,"google.com"
"526",2021-01-04 22:36:45,"google.com"
"527",2021-01-04 22:36:24,"google.com"
"528",2021-01-04 22:33:48,"stackoverflow.com"
"529",2021-01-04 22:32:53,"stackoverflow.com"
"530",2021-01-04 22:32:52,"google.com"
"531",2021-01-04 22:32:32,"google.com"
"532",2021-01-04 22:31:56,"stackoverflow.com"
"533",2021-01-04 22:31:54,"google.com"
"534",2021-01-04 22:31:39,"github.com"
"535",2021-01-04 22:31:36,"google.com"
"536",2021-01-04 22:28:31,"github.com"
"537",2021-01-04 22:27:39,"github.com"
"538",2021-01-04 22:27:34,"github.com"
"539",2021-01-04 22:26:41,"google.com"
"540",2021-01-04 22:25:12,"facebook.com"
"541",2021-01-04 22:25:12,"facebook.com"
"542",2021-01-04 22:25:10,"facebook.com"
"543",2021-01-04 22:25:10,"facebook.com"
"544",2021-01-04 22:24:33,"google.com"
"545",2021-01-04 21:59:46,"google.com"
"546",2021-01-04 21:31:40,"google.com"
"547",2021-01-04 21:30:16,"pw.edu.pl"
"548",2021-01-04 21:30:00,"pw.edu.pl"
"549",2021-01-04 21:29:51,"pw.edu.pl"
"550",2021-01-04 21:29:37,"pw.edu.pl"
"551",2021-01-04 21:29:30,"pw.edu.pl"
"552",2021-01-04 21:29:22,"pw.edu.pl"
"553",2021-01-04 21:29:17,"pw.edu.pl"
"554",2021-01-04 20:51:37,"google.com"
"555",2021-01-04 20:49:04,"google.com"
"556",2021-01-04 20:48:10,"google.com"
"557",2021-01-04 20:47:50,"google.com"
"558",2021-01-04 20:41:27,"google.com"
"559",2021-01-04 20:13:26,"google.com"
"560",2021-01-04 18:59:09,"google.com"
"561",2021-01-04 18:56:10,"pw.edu.pl"
"562",2021-01-04 18:56:02,"pw.edu.pl"
"563",2021-01-04 18:55:58,"pw.edu.pl"
"564",2021-01-04 18:55:50,"pw.edu.pl"
"565",2021-01-04 18:55:47,"pw.edu.pl"
"566",2021-01-04 18:45:38,"facebook.com"
"567",2021-01-04 18:45:35,"facebook.com"
"568",2021-01-04 18:37:36,"pw.edu.pl"
"569",2021-01-04 18:37:28,"github.com"
"570",2021-01-04 18:37:13,"github.com"
"571",2021-01-04 18:37:07,"github.com"
"572",2021-01-04 18:37:04,"github.com"
"573",2021-01-04 18:34:35,"pw.edu.pl"
"574",2021-01-04 18:34:25,"pw.edu.pl"
"575",2021-01-04 18:33:00,"pw.edu.pl"
"576",2021-01-04 18:32:53,"pw.edu.pl"
"577",2021-01-04 18:32:47,"pw.edu.pl"
"578",2021-01-04 18:32:41,"pw.edu.pl"
"579",2021-01-04 18:32:39,"pw.edu.pl"
"580",2021-01-04 18:23:13,"google.com"
"581",2021-01-04 18:23:09,"google.com"
"582",2021-01-04 18:19:05,"stackoverflow.com"
"583",2021-01-04 18:18:53,"google.com"
"584",2021-01-04 18:18:24,"youtube.com"
"585",2021-01-04 18:18:19,"google.com"
"586",2021-01-04 18:16:05,"google.com"
"587",2021-01-04 18:15:23,"stackoverflow.com"
"588",2021-01-04 18:15:21,"google.com"
"589",2021-01-04 18:15:20,"google.com"
"590",2021-01-04 18:15:16,"google.com"
"591",2021-01-04 18:14:11,"google.com"
"592",2021-01-04 18:06:40,"google.com"
"593",2021-01-04 18:06:28,"google.com"
"594",2021-01-04 18:06:12,"github.com"
"595",2021-01-04 18:06:12,"github.com"
"596",2021-01-04 18:04:09,"google.com"
"597",2021-01-04 18:04:06,"google.com"
"598",2021-01-04 17:36:37,"stackoverflow.com"
"599",2021-01-04 17:36:17,"google.com"
"600",2021-01-04 17:10:06,"stackoverflow.com"
"601",2021-01-04 17:09:56,"google.com"
"602",2021-01-04 17:09:49,"google.com"
"603",2021-01-04 17:06:45,"google.com"
"604",2021-01-04 17:01:12,"google.com"
"605",2021-01-04 16:48:42,"google.com"
"606",2021-01-04 16:42:56,"stackoverflow.com"
"607",2021-01-04 16:42:49,"google.com"
"608",2021-01-04 16:41:46,"google.com"
"609",2021-01-04 16:23:56,"google.com"
"610",2021-01-04 15:51:09,"google.com"
"611",2021-01-04 15:49:55,"stackoverflow.com"
"612",2021-01-04 15:49:54,"google.com"
"613",2021-01-04 15:39:07,"stackoverflow.com"
"614",2021-01-04 15:39:04,"google.com"
"615",2021-01-04 15:14:08,"google.com"
"616",2021-01-04 15:14:02,"google.com"
"617",2021-01-04 15:13:00,"stackoverflow.com"
"618",2021-01-04 15:12:58,"google.com"
"619",2021-01-04 14:56:33,"google.com"
"620",2021-01-04 14:56:24,"github.com"
"621",2021-01-04 14:56:21,"google.com"
"622",2021-01-04 14:49:45,"google.com"
"623",2021-01-04 14:44:08,"github.com"
"624",2021-01-04 14:42:06,"github.com"
"625",2021-01-04 14:42:03,"google.com"
"626",2021-01-04 14:27:49,"google.com"
"627",2021-01-04 14:26:35,"stackoverflow.com"
"628",2021-01-04 14:26:11,"github.com"
"629",2021-01-04 14:25:11,"google.com"
"630",2021-01-04 14:25:10,"github.com"
"631",2021-01-04 14:23:02,"stackoverflow.com"
"632",2021-01-04 14:23:00,"google.com"
"633",2021-01-04 14:20:00,"google.com"
"634",2021-01-04 14:19:39,"stackoverflow.com"
"635",2021-01-04 14:19:32,"google.com"
"636",2021-01-04 14:18:49,"google.com"
"637",2021-01-04 14:15:02,"youtube.com"
"638",2021-01-04 14:14:58,"youtube.com"
"639",2021-01-04 14:14:58,"youtube.com"
"640",2021-01-04 14:14:46,"youtube.com"
"641",2021-01-04 14:14:45,"google.com"
"642",2021-01-04 13:48:50,"google.com"
"643",2021-01-04 13:48:38,"google.com"
"644",2021-01-04 13:41:11,"google.com"
"645",2021-01-04 13:41:09,"google.com"
"646",2021-01-04 13:41:05,"google.com"
"647",2021-01-04 13:36:15,"google.com"
"648",2021-01-04 13:36:10,"google.com"
"649",2021-01-04 13:27:02,"google.com"
"650",2021-01-04 13:25:54,"google.com"
"651",2021-01-04 13:23:45,"google.com"
"652",2021-01-04 13:22:15,"stackoverflow.com"
"653",2021-01-04 13:22:14,"google.com"
"654",2021-01-04 13:17:59,"github.com"
"655",2021-01-04 13:17:54,"google.com"
"656",2021-01-04 13:16:41,"google.com"
"657",2021-01-04 13:16:39,"google.com"
"658",2021-01-04 12:57:56,"pw.edu.pl"
"659",2021-01-04 12:57:54,"pw.edu.pl"
"660",2021-01-04 12:57:50,"pw.edu.pl"
"661",2021-01-04 12:57:41,"pw.edu.pl"
"662",2021-01-04 12:57:35,"pw.edu.pl"
"663",2021-01-04 12:57:26,"pw.edu.pl"
"664",2021-01-04 12:57:20,"pw.edu.pl"
"665",2021-01-04 12:57:17,"pw.edu.pl"
"666",2021-01-04 12:57:10,"facebook.com"
"667",2021-01-04 12:56:46,"facebook.com"
"668",2021-01-04 12:56:45,"facebook.com"
"669",2021-01-04 12:56:42,"facebook.com"
"670",2021-01-04 01:23:26,"google.com"
"671",2021-01-04 01:22:58,"google.com"
"672",2021-01-04 01:21:33,"google.com"
"673",2021-01-04 01:18:43,"google.com"
"674",2021-01-04 01:18:22,"google.com"
"675",2021-01-04 01:09:48,"google.com"
"676",2021-01-04 01:08:39,"google.com"
"677",2021-01-04 01:08:22,"google.com"
"678",2021-01-04 00:56:06,"google.com"
"679",2021-01-03 23:56:26,"google.com"
"680",2021-01-03 23:56:04,"google.com"
"681",2021-01-03 23:55:31,"youtube.com"
"682",2021-01-03 23:55:24,"google.com"
"683",2021-01-03 23:54:59,"google.com"
"684",2021-01-03 23:54:51,"google.com"
"685",2021-01-03 23:54:20,"google.com"
"686",2021-01-03 23:53:58,"google.com"
"687",2021-01-03 23:53:13,"pw.edu.pl"
"688",2021-01-03 23:52:55,"pw.edu.pl"
"689",2021-01-03 23:52:47,"pw.edu.pl"
"690",2021-01-03 23:52:43,"pw.edu.pl"
"691",2021-01-03 23:52:35,"pw.edu.pl"
"692",2021-01-03 23:52:30,"pw.edu.pl"
"693",2021-01-03 23:52:26,"pw.edu.pl"
"694",2021-01-03 22:00:42,"google.com"
"695",2021-01-03 22:00:25,"google.com"
"696",2021-01-03 22:00:19,"google.com"
"697",2021-01-03 21:59:59,"google.com"
"698",2021-01-03 21:19:11,"google.com"
"699",2021-01-03 20:59:19,"pw.edu.pl"
"700",2021-01-03 20:59:11,"pw.edu.pl"
"701",2021-01-03 20:59:03,"pw.edu.pl"
"702",2021-01-03 20:58:58,"pw.edu.pl"
"703",2021-01-03 20:58:51,"pw.edu.pl"
"704",2021-01-03 20:58:45,"pw.edu.pl"
"705",2021-01-03 20:58:44,"pw.edu.pl"
"706",2021-01-03 20:03:04,"google.com"
"707",2021-01-03 19:51:05,"google.com"
"708",2021-01-03 18:11:18,"wikipedia.org"
"709",2021-01-03 18:11:14,"wikipedia.org"
"710",2021-01-03 18:11:00,"wikipedia.org"
"711",2021-01-03 18:10:58,"google.com"
"712",2021-01-03 18:08:09,"google.com"
"713",2021-01-03 18:08:04,"google.com"
"714",2021-01-03 18:07:49,"wikipedia.org"
"715",2021-01-03 18:07:45,"wikipedia.org"
"716",2021-01-03 18:07:40,"google.com"
"717",2021-01-03 18:00:47,"google.com"
"718",2021-01-03 18:00:41,"google.com"
"719",2021-01-03 15:41:34,"google.com"
"720",2021-01-03 15:39:23,"google.com"
"721",2021-01-03 15:39:18,"google.com"
"722",2021-01-03 15:39:11,"google.com"
"723",2021-01-03 15:28:31,"google.com"
"724",2021-01-03 15:28:26,"google.com"
"725",2021-01-03 14:42:03,"google.com"
"726",2021-01-03 14:39:34,"google.com"
"727",2021-01-03 14:39:04,"google.com"
"728",2021-01-03 14:23:01,"pw.edu.pl"
"729",2021-01-03 14:22:59,"pw.edu.pl"
"730",2021-01-03 14:22:48,"pw.edu.pl"
"731",2021-01-03 14:22:42,"pw.edu.pl"
"732",2021-01-03 14:22:35,"pw.edu.pl"
"733",2021-01-03 14:22:33,"pw.edu.pl"
"734",2021-01-03 14:18:19,"pw.edu.pl"
"735",2021-01-03 14:18:03,"pw.edu.pl"
"736",2021-01-03 14:17:54,"pw.edu.pl"
"737",2021-01-03 14:17:49,"pw.edu.pl"
"738",2021-01-03 14:07:27,"github.com"
"739",2021-01-03 14:07:27,"github.com"
"740",2021-01-03 14:07:23,"github.com"
"741",2021-01-03 14:07:20,"github.com"
"742",2021-01-03 14:07:14,"pw.edu.pl"
"743",2020-12-30 13:19:20,"facebook.com"
"744",2020-12-30 13:18:09,"facebook.com"
"745",2020-12-30 13:18:08,"facebook.com"
"746",2020-12-30 13:18:06,"facebook.com"
"747",2020-12-30 13:18:00,"github.com"
"748",2020-12-30 13:17:54,"github.com"
"749",2020-12-30 13:17:50,"github.com"
"750",2020-12-30 13:17:46,"github.com"
"751",2020-12-29 20:36:52,"github.com"
"752",2020-12-29 20:36:52,"github.com"
"753",2020-12-29 20:36:50,"github.com"
"754",2020-12-29 20:36:45,"github.com"
"755",2020-12-29 17:39:27,"github.com"
"756",2020-12-29 17:39:26,"github.com"
"757",2020-12-29 17:39:17,"github.com"
"758",2020-12-29 17:07:21,"facebook.com"
"759",2020-12-29 17:07:11,"github.com"
"760",2020-12-29 17:06:47,"github.com"
"761",2020-12-29 17:06:44,"github.com"
"762",2020-12-29 17:06:31,"stackoverflow.com"
"763",2020-12-29 17:06:31,"stackoverflow.com"
"764",2020-12-29 17:06:31,"github.com"
"765",2020-12-29 17:06:27,"github.com"
"766",2020-12-29 13:59:21,"github.com"
"767",2020-12-29 13:59:09,"github.com"
"768",2020-12-29 13:59:01,"github.com"
"769",2020-12-29 13:59:00,"github.com"
"770",2020-12-29 13:58:51,"github.com"
"771",2020-12-29 13:58:49,"github.com"
"772",2020-12-29 13:58:06,"github.com"
"773",2020-12-29 13:58:03,"github.com"
"774",2020-12-29 13:58:02,"github.com"
"775",2020-12-29 13:57:49,"github.com"
"776",2020-12-29 13:57:34,"github.com"
"777",2020-12-29 13:56:55,"github.com"
"778",2020-12-29 13:56:51,"github.com"
"779",2020-12-29 13:56:49,"github.com"
"780",2020-12-29 13:56:49,"github.com"
"781",2020-12-29 13:56:46,"github.com"
"782",2020-12-29 13:56:12,"github.com"
"783",2020-12-29 13:56:01,"github.com"
"784",2020-12-29 13:55:55,"github.com"
"785",2020-12-29 13:55:52,"github.com"
"786",2020-12-29 13:55:49,"github.com"
"787",2020-12-29 13:55:45,"github.com"
"788",2020-12-29 13:55:44,"github.com"
"789",2020-12-29 13:55:42,"github.com"
"790",2020-12-29 13:55:40,"github.com"
"791",2020-12-29 13:55:34,"github.com"
"792",2020-12-29 13:55:31,"github.com"
"793",2020-12-29 13:55:30,"github.com"
"794",2020-12-29 13:55:29,"github.com"
"795",2020-12-29 13:54:42,"github.com"
"796",2020-12-29 13:54:31,"github.com"
"797",2020-12-29 13:52:50,"github.com"
"798",2020-12-29 13:52:48,"github.com"
"799",2020-12-29 13:45:41,"stackoverflow.com"
"800",2020-12-29 13:45:39,"google.com"
"801",2020-12-29 13:38:29,"google.com"
"802",2020-12-29 13:30:53,"github.com"
"803",2020-12-29 13:30:52,"github.com"
"804",2020-12-29 13:30:13,"github.com"
"805",2020-12-29 13:30:04,"github.com"
"806",2020-12-29 13:26:24,"github.com"
"807",2020-12-29 13:26:22,"github.com"
"808",2020-12-29 13:26:19,"github.com"
"809",2020-12-29 13:08:34,"stackoverflow.com"
"810",2020-12-29 13:08:32,"google.com"
"811",2020-12-29 13:02:17,"github.com"
"812",2020-12-29 13:02:14,"github.com"
"813",2020-12-29 13:02:08,"github.com"
"814",2020-12-29 13:02:02,"github.com"
"815",2020-12-29 13:02:01,"github.com"
"816",2020-12-29 13:02:01,"github.com"
"817",2020-12-29 13:01:58,"github.com"
"818",2020-12-29 13:01:55,"github.com"
"819",2020-12-29 03:07:55,"github.com"
"820",2020-12-29 03:07:53,"github.com"
"821",2020-12-29 03:07:50,"github.com"
"822",2020-12-29 03:07:44,"github.com"
"823",2020-12-29 03:07:35,"github.com"
"824",2020-12-29 03:07:33,"github.com"
"825",2020-12-29 03:05:51,"google.com"
"826",2020-12-29 03:05:46,"google.com"
"827",2020-12-29 03:05:43,"google.com"
"828",2020-12-29 03:05:39,"google.com"
"829",2020-12-29 03:05:37,"google.com"
"830",2020-12-29 03:04:31,"github.com"
"831",2020-12-29 03:04:28,"github.com"
"832",2020-12-29 03:04:08,"github.com"
"833",2020-12-29 03:04:06,"github.com"
"834",2020-12-29 03:03:40,"github.com"
"835",2020-12-29 03:03:38,"github.com"
"836",2020-12-29 03:03:26,"github.com"
"837",2020-12-29 03:03:23,"github.com"
"838",2020-12-29 03:03:21,"github.com"
"839",2020-12-29 03:03:21,"github.com"
"840",2020-12-29 03:03:15,"github.com"
"841",2020-12-29 03:02:57,"github.com"
"842",2020-12-29 03:02:55,"github.com"
"843",2020-12-29 03:02:53,"github.com"
"844",2020-12-29 03:02:53,"github.com"
"845",2020-12-29 03:02:48,"github.com"
"846",2020-12-29 03:02:43,"github.com"
"847",2020-12-29 03:02:41,"github.com"
"848",2020-12-29 03:02:37,"github.com"
"849",2020-12-29 03:02:37,"github.com"
"850",2020-12-29 03:02:17,"github.com"
"851",2020-12-29 03:02:13,"github.com"
"852",2020-12-29 03:02:08,"github.com"
"853",2020-12-29 02:22:19,"google.com"
"854",2020-12-29 01:58:48,"google.com"
"855",2020-12-29 00:28:05,"github.com"
"856",2020-12-29 00:27:51,"github.com"
"857",2020-12-29 00:27:49,"github.com"
"858",2020-12-29 00:27:06,"github.com"
"859",2020-12-29 00:27:03,"github.com"
"860",2020-12-29 00:26:25,"github.com"
"861",2020-12-29 00:26:24,"github.com"
"862",2020-12-29 00:26:21,"github.com"
"863",2020-12-29 00:26:11,"github.com"
"864",2020-12-29 00:26:08,"github.com"
"865",2020-12-29 00:26:05,"github.com"
"866",2020-12-29 00:26:04,"github.com"
"867",2020-12-29 00:26:00,"github.com"
"868",2020-12-29 00:04:26,"google.com"
"869",2020-12-28 23:55:04,"stackoverflow.com"
"870",2020-12-28 23:54:57,"google.com"
"871",2020-12-28 23:54:44,"google.com"
"872",2020-12-28 23:41:21,"google.com"
"873",2020-12-28 23:37:34,"github.com"
"874",2020-12-28 23:37:31,"github.com"
"875",2020-12-28 23:37:28,"github.com"
"876",2020-12-28 21:24:21,"google.com"
"877",2020-12-28 21:21:27,"google.com"
"878",2020-12-28 21:14:23,"facebook.com"
"879",2020-12-28 21:13:50,"github.com"
"880",2020-12-28 21:13:47,"github.com"
"881",2020-12-28 21:13:45,"github.com"
"882",2020-12-28 21:12:50,"github.com"
"883",2020-12-28 21:12:46,"github.com"
"884",2020-12-28 21:11:54,"github.com"
"885",2020-12-28 21:11:43,"github.com"
"886",2020-12-28 21:10:33,"github.com"
"887",2020-12-28 21:10:28,"github.com"
"888",2020-12-28 21:10:25,"github.com"
"889",2020-12-28 21:10:15,"github.com"
"890",2020-12-28 21:10:04,"github.com"
"891",2020-12-28 21:10:02,"github.com"
"892",2020-12-28 21:09:26,"github.com"
"893",2020-12-28 21:09:15,"github.com"
"894",2020-12-28 21:09:08,"github.com"
"895",2020-12-28 21:08:44,"github.com"
"896",2020-12-28 21:08:44,"github.com"
"897",2020-12-28 21:08:44,"github.com"
"898",2020-12-28 21:08:41,"github.com"
"899",2020-12-28 18:02:06,"github.com"
"900",2020-12-28 17:05:51,"pw.edu.pl"
"901",2020-12-28 17:05:11,"pw.edu.pl"
"902",2020-12-28 17:05:03,"pw.edu.pl"
"903",2020-12-28 17:05:00,"pw.edu.pl"
"904",2020-12-28 17:04:53,"pw.edu.pl"
"905",2020-12-28 17:04:46,"pw.edu.pl"
"906",2020-12-28 17:04:44,"pw.edu.pl"
"907",2020-12-28 17:04:39,"facebook.com"
"908",2020-12-28 17:04:39,"facebook.com"
"909",2020-12-28 17:00:14,"github.com"
"910",2020-12-28 17:00:11,"github.com"
"911",2020-12-28 16:59:48,"github.com"
"912",2020-12-28 16:59:46,"github.com"
"913",2020-12-28 16:59:46,"github.com"
"914",2020-12-28 16:56:10,"github.com"
"915",2020-12-28 16:56:08,"github.com"
"916",2020-12-28 16:56:04,"github.com"
"917",2020-12-28 16:54:35,"github.com"
"918",2020-12-28 16:54:22,"github.com"
"919",2020-12-28 16:54:22,"github.com"
"920",2020-12-28 16:51:25,"github.com"
"921",2020-12-28 16:51:22,"github.com"
"922",2020-12-28 16:51:15,"facebook.com"
"923",2020-12-28 16:50:49,"facebook.com"
"924",2020-12-28 16:50:45,"facebook.com"
"925",2020-12-28 16:50:32,"facebook.com"
"926",2020-12-28 16:50:29,"facebook.com"
"927",2020-12-28 16:50:26,"facebook.com"
"928",2020-12-28 16:50:11,"facebook.com"
"929",2020-12-28 16:50:11,"facebook.com"
"930",2020-12-28 16:50:09,"facebook.com"
"931",2020-12-28 16:29:08,"github.com"
"932",2020-12-28 16:29:06,"github.com"
"933",2020-12-28 16:29:06,"github.com"
"934",2020-12-28 16:29:04,"github.com"
"935",2020-12-28 16:28:55,"github.com"
"936",2020-12-28 16:28:55,"github.com"
"937",2020-12-28 16:27:57,"github.com"
"938",2020-12-28 16:27:49,"github.com"
"939",2020-12-28 16:27:09,"github.com"
"940",2020-12-28 16:26:35,"github.com"
"941",2020-12-28 16:26:33,"github.com"
"942",2020-12-28 16:25:48,"github.com"
"943",2020-12-28 16:22:10,"github.com"
"944",2020-12-28 16:22:09,"github.com"
"945",2020-12-28 16:22:00,"github.com"
"946",2020-12-28 16:21:58,"github.com"
"947",2020-12-28 16:21:58,"github.com"
"948",2020-12-28 16:21:57,"github.com"
"949",2020-12-28 16:21:56,"github.com"
"950",2020-12-28 16:21:53,"github.com"
"951",2020-12-28 16:21:51,"github.com"
"952",2020-12-28 16:21:39,"github.com"
"953",2020-12-28 16:21:39,"github.com"
"954",2020-12-28 16:20:30,"github.com"
"955",2020-12-28 16:20:29,"github.com"
"956",2020-12-28 16:20:24,"github.com"
"957",2020-12-28 16:20:04,"github.com"
"958",2020-12-28 16:19:54,"github.com"
"959",2020-12-28 16:19:52,"github.com"
"960",2020-12-28 16:19:44,"github.com"
"961",2020-12-28 16:19:44,"github.com"
"962",2020-12-28 16:19:35,"github.com"
"963",2020-12-28 16:19:31,"github.com"
"964",2020-12-28 16:19:29,"github.com"
"965",2020-12-28 16:19:28,"github.com"
"966",2020-12-28 16:19:28,"github.com"
"967",2020-12-28 16:19:22,"github.com"
"968",2020-12-28 16:19:18,"github.com"
"969",2020-12-28 16:18:15,"github.com"
"970",2020-12-28 16:18:11,"github.com"
"971",2020-12-28 16:18:06,"github.com"
"972",2020-12-28 16:18:04,"github.com"
"973",2020-12-28 16:18:04,"github.com"
"974",2020-12-28 16:16:09,"github.com"
"975",2020-12-28 16:16:00,"github.com"
"976",2020-12-28 16:15:28,"github.com"
"977",2020-12-28 16:14:48,"github.com"
"978",2020-12-28 16:14:46,"github.com"
"979",2020-12-28 16:14:42,"github.com"
"980",2020-12-28 16:14:39,"github.com"
"981",2020-12-28 16:14:36,"github.com"
"982",2020-12-28 16:14:35,"github.com"
"983",2020-12-28 16:14:31,"github.com"
"984",2020-12-28 16:14:26,"github.com"
"985",2020-12-28 16:14:25,"github.com"
"986",2020-12-28 16:14:22,"github.com"
"987",2020-12-28 15:01:50,"github.com"
"988",2020-12-28 15:01:47,"github.com"
"989",2020-12-28 13:52:31,"github.com"
"990",2020-12-28 13:52:30,"github.com"
"991",2020-12-28 13:51:48,"github.com"
"992",2020-12-28 13:51:46,"github.com"
"993",2020-12-28 13:51:16,"github.com"
"994",2020-12-28 13:51:14,"github.com"
"995",2020-12-28 13:50:50,"github.com"
"996",2020-12-28 13:50:36,"github.com"
"997",2020-12-28 13:50:34,"github.com"
"998",2020-12-28 13:50:31,"github.com"
"999",2020-12-28 13:50:31,"github.com"
"1000",2020-12-28 13:50:20,"github.com"
"1001",2020-12-28 13:47:17,"github.com"
"1002",2020-12-28 13:47:14,"github.com"
"1003",2020-12-28 13:47:12,"github.com"
"1004",2020-12-28 13:46:32,"github.com"
"1005",2020-12-28 13:42:54,"github.com"
"1006",2020-12-28 13:42:54,"github.com"
"1007",2020-12-28 13:42:47,"github.com"
"1008",2020-12-28 13:42:43,"github.com"
"1009",2020-12-28 13:42:39,"github.com"
"1010",2020-12-28 13:42:38,"github.com"
"1011",2020-12-28 13:42:21,"github.com"
"1012",2020-12-27 20:59:32,"github.com"
"1013",2020-12-27 20:59:22,"github.com"
"1014",2020-12-27 20:59:22,"github.com"
"1015",2020-12-27 20:59:22,"github.com"
"1016",2020-12-27 20:59:13,"github.com"
"1017",2020-12-27 20:59:08,"pw.edu.pl"
"1018",2020-12-27 20:58:59,"pw.edu.pl"
"1019",2020-12-27 20:58:49,"pw.edu.pl"
"1020",2020-12-27 20:58:44,"pw.edu.pl"
"1021",2020-12-27 20:58:37,"pw.edu.pl"
"1022",2020-12-27 20:58:30,"pw.edu.pl"
"1023",2020-12-27 20:58:28,"pw.edu.pl"
"1024",2020-12-25 03:20:52,"github.com"
"1025",2020-12-25 03:20:51,"github.com"
"1026",2020-12-25 03:20:47,"github.com"
"1027",2020-12-25 03:20:42,"pw.edu.pl"
"1028",2020-12-25 03:20:38,"pw.edu.pl"
"1029",2020-12-25 03:20:30,"pw.edu.pl"
"1030",2020-12-25 03:20:22,"pw.edu.pl"
"1031",2020-12-25 03:20:18,"pw.edu.pl"
"1032",2020-12-23 15:42:52,"google.com"
"1033",2020-12-23 15:28:07,"pw.edu.pl"
"1034",2020-12-23 14:44:24,"google.com"
"1035",2020-12-23 14:18:36,"pw.edu.pl"
"1036",2020-12-23 14:18:30,"pw.edu.pl"
"1037",2020-12-23 14:02:44,"github.com"
"1038",2020-12-23 14:02:41,"github.com"
"1039",2020-12-23 14:02:36,"github.com"
"1040",2020-12-23 14:02:26,"github.com"
"1041",2020-12-23 14:02:26,"github.com"
"1042",2020-12-23 14:02:26,"github.com"
"1043",2020-12-23 14:02:22,"github.com"
"1044",2020-12-23 14:02:18,"pw.edu.pl"
"1045",2020-12-23 12:20:49,"facebook.com"
"1046",2020-12-23 12:20:06,"facebook.com"
"1047",2020-12-23 12:06:39,"pw.edu.pl"
"1048",2020-12-23 10:42:30,"pw.edu.pl"
"1049",2020-12-23 10:42:22,"pw.edu.pl"
"1050",2020-12-23 10:42:08,"pw.edu.pl"
"1051",2020-12-23 10:41:55,"pw.edu.pl"
"1052",2020-12-23 10:41:49,"pw.edu.pl"
"1053",2020-12-23 10:41:48,"pw.edu.pl"
"1054",2020-12-23 09:53:56,"facebook.com"
"1055",2020-12-23 09:53:54,"facebook.com"
"1056",2020-12-22 19:14:16,"facebook.com"
"1057",2020-12-22 19:10:53,"facebook.com"
"1058",2020-12-22 19:10:50,"facebook.com"
"1059",2020-12-22 19:10:49,"facebook.com"
"1060",2020-12-22 19:03:20,"facebook.com"
"1061",2020-12-22 19:03:20,"facebook.com"
"1062",2020-12-22 19:03:18,"facebook.com"
"1063",2020-12-22 17:11:18,"pw.edu.pl"
"1064",2020-12-22 17:11:10,"pw.edu.pl"
"1065",2020-12-22 17:11:02,"pw.edu.pl"
"1066",2020-12-22 17:10:53,"pw.edu.pl"
"1067",2020-12-22 17:10:51,"pw.edu.pl"
"1068",2020-12-22 17:10:42,"github.com"
"1069",2020-12-22 17:10:40,"github.com"
"1070",2020-12-22 17:10:23,"google.com"
"1071",2020-12-22 16:54:01,"facebook.com"
"1072",2020-12-22 16:53:19,"facebook.com"
"1073",2020-12-22 16:53:17,"facebook.com"
"1074",2020-12-22 16:53:10,"github.com"
"1075",2020-12-22 16:53:08,"github.com"
"1076",2020-12-22 16:07:31,"facebook.com"
"1077",2020-12-22 16:07:15,"facebook.com"
"1078",2020-12-22 16:07:15,"facebook.com"
"1079",2020-12-22 16:07:13,"facebook.com"
"1080",2020-12-22 15:26:45,"github.com"
"1081",2020-12-22 15:26:44,"github.com"
"1082",2020-12-22 15:26:43,"github.com"
"1083",2020-12-22 15:26:42,"github.com"
"1084",2020-12-22 15:26:40,"github.com"
"1085",2020-12-22 15:26:26,"github.com"
"1086",2020-12-22 15:26:26,"github.com"
"1087",2020-12-22 15:26:19,"github.com"
"1088",2020-12-22 15:24:39,"pw.edu.pl"
"1089",2020-12-22 15:24:38,"pw.edu.pl"
"1090",2020-12-22 15:24:27,"pw.edu.pl"
"1091",2020-12-22 15:24:21,"pw.edu.pl"
"1092",2020-12-22 15:24:15,"pw.edu.pl"
"1093",2020-12-22 15:24:13,"pw.edu.pl"
"1094",2020-12-22 13:57:10,"stackoverflow.com"
"1095",2020-12-22 13:57:03,"google.com"
"1096",2020-12-22 13:51:35,"stackoverflow.com"
"1097",2020-12-22 13:51:32,"google.com"
"1098",2020-12-22 13:41:44,"google.com"
"1099",2020-12-22 13:41:36,"google.com"
"1100",2020-12-22 12:13:49,"pw.edu.pl"
"1101",2020-12-22 12:13:39,"pw.edu.pl"
"1102",2020-12-22 12:13:37,"pw.edu.pl"
"1103",2020-12-22 12:13:34,"pw.edu.pl"
"1104",2020-12-22 11:42:19,"stackoverflow.com"
"1105",2020-12-22 11:42:18,"google.com"
"1106",2020-12-22 11:39:01,"stackoverflow.com"
"1107",2020-12-22 11:39:00,"google.com"
"1108",2020-12-22 11:37:49,"stackoverflow.com"
"1109",2020-12-22 11:37:48,"google.com"
"1110",2020-12-22 11:37:25,"google.com"
"1111",2020-12-21 23:49:28,"pw.edu.pl"
"1112",2020-12-21 23:49:19,"pw.edu.pl"
"1113",2020-12-21 23:49:14,"pw.edu.pl"
"1114",2020-12-21 23:49:12,"pw.edu.pl"
"1115",2020-12-21 23:49:06,"github.com"
"1116",2020-12-21 23:49:05,"github.com"
"1117",2020-12-21 23:48:32,"github.com"
"1118",2020-12-21 22:27:24,"stackoverflow.com"
"1119",2020-12-21 22:27:16,"google.com"
"1120",2020-12-21 22:26:38,"google.com"
"1121",2020-12-21 22:25:37,"stackoverflow.com"
"1122",2020-12-21 22:25:35,"google.com"
"1123",2020-12-21 22:15:05,"google.com"
"1124",2020-12-21 21:54:20,"facebook.com"
"1125",2020-12-21 21:53:55,"facebook.com"
"1126",2020-12-21 21:52:24,"stackoverflow.com"
"1127",2020-12-21 21:52:20,"google.com"
"1128",2020-12-21 21:52:10,"google.com"
"1129",2020-12-21 21:51:43,"google.com"
"1130",2020-12-21 20:47:02,"facebook.com"
"1131",2020-12-21 20:46:35,"github.com"
"1132",2020-12-21 20:46:33,"github.com"
"1133",2020-12-21 20:46:30,"github.com"
"1134",2020-12-21 20:46:28,"github.com"
"1135",2020-12-21 20:46:28,"github.com"
"1136",2020-12-21 20:46:20,"github.com"
"1137",2020-12-21 20:46:15,"pw.edu.pl"
"1138",2020-12-21 20:46:07,"pw.edu.pl"
"1139",2020-12-21 20:45:59,"pw.edu.pl"
"1140",2020-12-21 20:45:54,"pw.edu.pl"
"1141",2020-12-21 20:45:39,"pw.edu.pl"
"1142",2020-12-21 20:45:32,"pw.edu.pl"
"1143",2020-12-21 20:45:30,"pw.edu.pl"
"1144",2020-12-21 20:32:12,"google.com"
"1145",2020-12-21 20:29:52,"stackoverflow.com"
"1146",2020-12-21 20:29:51,"google.com"
"1147",2020-12-21 20:21:56,"google.com"
"1148",2020-12-21 20:19:36,"youtube.com"
"1149",2020-12-21 20:19:35,"google.com"
"1150",2020-12-21 20:17:13,"google.com"
"1151",2020-12-21 20:16:21,"google.com"
"1152",2020-12-21 20:14:24,"stackoverflow.com"
"1153",2020-12-21 20:13:49,"stackoverflow.com"
"1154",2020-12-21 20:13:09,"stackoverflow.com"
"1155",2020-12-21 20:13:06,"google.com"
"1156",2020-12-21 19:46:01,"google.com"
"1157",2020-12-21 19:45:54,"google.com"
"1158",2020-12-21 19:45:52,"google.com"
"1159",2020-12-21 19:45:31,"youtube.com"
"1160",2020-12-21 19:45:28,"google.com"
"1161",2020-12-21 19:42:45,"facebook.com"
"1162",2020-12-21 19:42:43,"facebook.com"
"1163",2020-12-21 19:42:42,"facebook.com"
"1164",2020-12-21 18:54:15,"stackoverflow.com"
"1165",2020-12-21 18:54:13,"google.com"
"1166",2020-12-21 18:53:56,"facebook.com"
"1167",2020-12-21 18:52:02,"facebook.com"
"1168",2020-12-21 18:51:58,"facebook.com"
"1169",2020-12-21 18:51:57,"facebook.com"
"1170",2020-12-21 18:51:56,"facebook.com"
"1171",2020-12-21 18:51:56,"facebook.com"
"1172",2020-12-21 18:49:58,"google.com"
"1173",2020-12-21 18:49:05,"google.com"
"1174",2020-12-21 18:48:57,"google.com"
"1175",2020-12-21 18:48:43,"google.com"
"1176",2020-12-21 18:27:56,"stackoverflow.com"
"1177",2020-12-21 18:27:55,"google.com"
"1178",2020-12-21 18:19:40,"github.com"
"1179",2020-12-21 18:09:17,"google.com"
"1180",2020-12-21 18:08:20,"github.com"
"1181",2020-12-21 18:08:17,"github.com"
"1182",2020-12-21 18:08:16,"github.com"
"1183",2020-12-21 18:08:11,"github.com"
"1184",2020-12-21 17:29:48,"github.com"
"1185",2020-12-21 17:29:44,"github.com"
"1186",2020-12-21 17:29:41,"github.com"
"1187",2020-12-21 17:29:39,"github.com"
"1188",2020-12-21 17:29:37,"github.com"
"1189",2020-12-21 17:29:32,"github.com"
"1190",2020-12-21 17:29:32,"github.com"
"1191",2020-12-21 17:28:37,"github.com"
"1192",2020-12-21 17:28:10,"github.com"
"1193",2020-12-21 17:28:03,"github.com"
"1194",2020-12-21 17:28:01,"github.com"
"1195",2020-12-21 17:28:01,"github.com"
"1196",2020-12-21 17:27:54,"github.com"
"1197",2020-12-21 17:27:06,"github.com"
"1198",2020-12-21 17:26:45,"github.com"
"1199",2020-12-21 17:26:33,"github.com"
"1200",2020-12-21 17:26:28,"github.com"
"1201",2020-12-21 17:26:28,"github.com"
"1202",2020-12-21 17:26:25,"github.com"
"1203",2020-12-21 17:26:24,"github.com"
"1204",2020-12-21 17:26:01,"github.com"
"1205",2020-12-21 17:25:37,"github.com"
"1206",2020-12-21 17:25:33,"github.com"
"1207",2020-12-21 17:25:21,"github.com"
"1208",2020-12-21 17:25:18,"github.com"
"1209",2020-12-21 17:25:17,"github.com"
"1210",2020-12-21 17:25:13,"github.com"
"1211",2020-12-21 17:25:10,"github.com"
"1212",2020-12-21 17:21:53,"github.com"
"1213",2020-12-21 17:21:48,"google.com"
"1214",2020-12-21 17:19:26,"google.com"
"1215",2020-12-21 17:14:55,"google.com"
"1216",2020-12-21 17:11:53,"stackoverflow.com"
"1217",2020-12-21 17:11:51,"google.com"
"1218",2020-12-21 17:11:41,"google.com"
"1219",2020-12-21 17:08:06,"stackoverflow.com"
"1220",2020-12-21 17:08:05,"google.com"
"1221",2020-12-21 17:05:19,"github.com"
"1222",2020-12-21 17:05:16,"google.com"
"1223",2020-12-21 17:03:55,"github.com"
"1224",2020-12-21 17:03:53,"github.com"
"1225",2020-12-21 17:03:51,"github.com"
"1226",2020-12-21 17:03:49,"github.com"
"1227",2020-12-21 17:03:49,"github.com"
"1228",2020-12-21 17:03:41,"github.com"
"1229",2020-12-21 17:03:17,"github.com"
"1230",2020-12-21 17:03:15,"github.com"
"1231",2020-12-21 17:03:14,"github.com"
"1232",2020-12-21 17:03:10,"github.com"
"1233",2020-12-21 17:03:09,"github.com"
"1234",2020-12-21 16:53:43,"stackoverflow.com"
"1235",2020-12-21 16:53:41,"google.com"
"1236",2020-12-21 16:43:18,"github.com"
"1237",2020-12-21 16:43:16,"github.com"
"1238",2020-12-21 16:42:57,"github.com"
"1239",2020-12-21 16:42:55,"github.com"
"1240",2020-12-21 16:41:43,"github.com"
"1241",2020-12-21 16:41:41,"github.com"
"1242",2020-12-21 16:41:38,"github.com"
"1243",2020-12-21 16:41:13,"github.com"
"1244",2020-12-21 16:41:10,"github.com"
"1245",2020-12-21 16:41:02,"github.com"
"1246",2020-12-21 16:39:27,"github.com"
"1247",2020-12-21 16:39:25,"github.com"
"1248",2020-12-21 16:39:22,"github.com"
"1249",2020-12-21 16:38:52,"github.com"
"1250",2020-12-21 16:38:51,"github.com"
"1251",2020-12-21 16:38:39,"github.com"
"1252",2020-12-21 16:38:35,"github.com"
"1253",2020-12-21 16:38:32,"github.com"
"1254",2020-12-21 16:38:29,"github.com"
"1255",2020-12-21 16:38:27,"github.com"
"1256",2020-12-21 16:38:25,"github.com"
"1257",2020-12-21 16:38:23,"github.com"
"1258",2020-12-21 16:38:20,"github.com"
"1259",2020-12-21 16:12:39,"github.com"
"1260",2020-12-21 16:12:37,"google.com"
"1261",2020-12-21 16:10:53,"google.com"
"1262",2020-12-21 16:09:32,"github.com"
"1263",2020-12-21 16:09:26,"google.com"
"1264",2020-12-21 15:49:24,"google.com"
"1265",2020-12-21 15:47:11,"google.com"
"1266",2020-12-21 15:46:18,"stackoverflow.com"
"1267",2020-12-21 15:46:16,"google.com"
"1268",2020-12-21 15:35:56,"google.com"
"1269",2020-12-21 15:24:08,"google.com"
"1270",2020-12-21 15:23:59,"google.com"
"1271",2020-12-21 15:23:30,"google.com"
"1272",2020-12-21 15:23:11,"google.com"
"1273",2020-12-21 15:22:56,"google.com"
"1274",2020-12-21 15:22:19,"google.com"
"1275",2020-12-21 15:21:58,"google.com"
"1276",2020-12-21 15:21:57,"google.com"
"1277",2020-12-21 15:21:53,"google.com"
"1278",2020-12-21 15:21:47,"google.com"
"1279",2020-12-21 15:12:10,"github.com"
"1280",2020-12-21 15:12:09,"github.com"
"1281",2020-12-21 15:11:54,"github.com"
"1282",2020-12-21 15:11:51,"github.com"
"1283",2020-12-21 15:11:50,"github.com"
"1284",2020-12-21 15:11:42,"github.com"
"1285",2020-12-21 14:26:41,"youtube.com"
"1286",2020-12-21 13:52:02,"google.com"
"1287",2020-12-21 13:51:55,"google.com"
"1288",2020-12-21 13:51:16,"google.com"
"1289",2020-12-21 13:48:11,"google.com"
"1290",2020-12-21 13:47:00,"google.com"
"1291",2020-12-21 13:47:00,"google.com"
"1292",2020-12-21 13:46:59,"google.com"
"1293",2020-12-21 13:46:49,"google.com"
"1294",2020-12-21 13:46:27,"google.com"
"1295",2020-12-21 13:46:26,"google.com"
"1296",2020-12-21 13:46:23,"google.com"
"1297",2020-12-21 13:46:23,"google.com"
"1298",2020-12-21 13:46:08,"github.com"
"1299",2020-12-21 13:46:00,"pw.edu.pl"
"1300",2020-12-21 13:44:54,"google.com"
"1301",2020-12-21 13:44:54,"google.com"
"1302",2020-12-21 13:44:50,"google.com"
"1303",2020-12-21 13:44:50,"google.com"
"1304",2020-12-21 13:44:41,"google.com"
"1305",2020-12-21 13:43:49,"google.com"
"1306",2020-12-21 13:43:16,"google.com"
"1307",2020-12-21 13:43:15,"google.com"
"1308",2020-12-21 13:41:43,"google.com"
